City,Lat,Lng,Max Temp,Humidity,Cloudiness,Wind Speed,Country,Date
ancud,-41.87,-73.82,284.82,93,75,7.7,CL,1589057451
pangnirtung,66.15,-65.71,272.97,92,100,2.65,CA,1589057692
provideniya,64.38,-173.3,277.12,76,100,11.46,RU,1589057692
praya,14.92,-23.51,296.15,73,75,8.2,CV,1589057417
solnechnyy,50.72,136.63,281.84,59,100,1.11,RU,1589057693
ushuaia,-54.8,-68.3,282.15,70,75,2.1,AR,1589057606
takoradi,4.88,-1.76,300.5,88,3,3.89,GH,1589057694
punta arenas,-53.15,-70.92,280.15,87,75,2.1,CL,1589057404
port alfred,-33.59,26.89,289.26,95,1,1.79,ZA,1589057695
cabedelo,-6.98,-34.83,300.15,74,20,7.7,BR,1589057696
vangaindrano,-23.35,47.6,292.58,84,55,1.97,MG,1589057696
murray,40.67,-111.89,296.48,30,1,5.7,US,1589057697
severo-kurilsk,50.68,156.12,273.91,91,96,8.16,RU,1589057697
domoni,-12.26,44.53,299.29,83,100,3.55,KM,1589057697
yellowknife,62.46,-114.35,274.15,50,40,4.6,CA,1589057698
chabahar,25.29,60.64,301.52,66,10,2.03,IR,1589057698
whitehorse,60.72,-135.05,292.15,25,20,8.7,CA,1589057474
opuwo,-18.06,13.84,291.76,37,0,3.49,NA,1589057699
dikson,73.51,80.55,269.85,97,92,8.21,RU,1589057699
salalah,17.02,54.09,301.15,88,20,1.0,OM,1589057700
moranbah,-22.0,148.05,289.51,87,0,1.3,AU,1589057700
mount isa,-20.73,139.5,292.15,29,2,4.6,AU,1589057701
waipawa,-41.41,175.52,286.15,87,0,6.2,NZ,1589057701
hermanus,-34.42,19.23,289.26,79,0,1.34,ZA,1589057644
chipinge,-20.19,32.62,285.66,93,35,1.88,ZW,1589057702
sol-iletsk,51.16,54.99,289.0,79,71,6.17,RU,1589057702
puerto ayora,-0.74,-90.35,302.15,70,20,9.3,EC,1589057404
aasiaat,68.71,-52.87,274.29,85,99,1.92,GL,1589057703
rikitea,-23.12,-134.97,297.32,69,83,1.33,PF,1589057704
coihaique,-45.58,-72.07,281.15,87,90,1.5,CL,1589057704
saskylakh,71.92,114.08,266.79,97,100,6.48,RU,1589057705
cape town,-33.93,18.42,289.15,93,40,2.6,ZA,1589057212
castro,-24.79,-50.01,287.08,77,0,1.83,BR,1589057706
stutterheim,-32.57,27.42,286.5,51,10,2.08,ZA,1589057706
ondjiva,-17.07,15.73,293.2,43,54,2.56,AO,1589057707
bathsheba,13.22,-59.52,302.15,62,40,10.3,BB,1589057707
arraial do cabo,-22.97,-42.03,295.15,68,0,2.6,BR,1589057707
mount gambier,-37.83,140.77,278.15,93,75,2.15,AU,1589057469
airai,-8.93,125.41,286.72,100,100,1.55,TL,1589057426
gat,31.61,34.76,292.59,76,10,1.37,IL,1589057582
leningradskiy,69.38,178.42,269.18,95,100,3.44,RU,1589057709
limbuhan,11.88,124.05,300.33,83,100,5.03,PH,1589057710
krasnovishersk,60.41,57.08,285.85,67,0,1.73,RU,1589057711
grindavik,63.84,-22.43,278.15,41,20,3.1,IS,1589057711
berbera,10.44,45.01,304.64,67,0,1.84,SO,1589057711
lasa,46.62,10.7,286.15,76,40,3.1,IT,1589057476
whitefish,48.41,-114.34,290.37,27,1,5.7,US,1589057712
yelan-kolenovskiy,51.16,41.15,281.26,85,0,3.29,RU,1589057713
la reforma,25.08,-108.05,310.37,25,0,3.13,MX,1589057713
maragogi,-9.01,-35.22,298.61,75,83,3.16,BR,1589057714
ribeira grande,38.52,-28.7,291.15,88,75,8.7,PT,1589057714
avarua,-21.21,-159.78,300.15,83,13,7.2,CK,1589057504
pinsk,52.12,26.1,282.98,80,71,1.57,BY,1589057715
sisophon,13.59,102.97,301.42,78,100,2.52,KH,1589057716
hilo,19.73,-155.09,299.15,65,40,3.1,US,1589057716
hartland,43.1,-88.34,287.59,23,5,7.2,US,1589057717
saldanha,-33.01,17.94,289.15,72,0,1.0,ZA,1589057717
baker city,44.77,-117.83,297.15,17,1,2.1,US,1589057717
hobart,-42.88,147.33,279.82,81,40,3.6,AU,1589057718
qaanaaq,77.48,-69.36,262.64,86,56,1.43,GL,1589057718
kapaa,22.08,-159.32,298.15,69,90,7.7,US,1589057719
aklavik,68.22,-135.01,278.15,56,20,7.7,CA,1589057719
khanpur,28.65,70.66,307.59,17,0,5.38,PK,1589057486
new norfolk,-42.78,147.06,278.71,85,18,1.41,AU,1589057720
katsuura,35.13,140.3,292.04,92,78,4.47,JP,1589057720
saint-joseph,-21.37,55.62,294.15,77,20,3.6,RE,1589057721
bunia,1.57,30.25,291.83,96,100,2.03,CD,1589057713
lat yao,15.75,99.79,302.85,63,95,3.3,TH,1589057722
port elizabeth,-33.92,25.57,289.15,100,0,1.5,ZA,1589057477
elizabeth city,36.29,-76.25,289.26,29,20,7.2,US,1589057722
tursunzoda,38.51,68.23,286.15,87,40,1.0,TJ,1589057723
chokurdakh,70.63,147.92,268.16,98,52,2.19,RU,1589057724
ulaangom,49.98,92.07,278.97,54,0,0.12,MN,1589057483
kinston,35.26,-77.58,289.26,29,1,4.6,US,1589057725
esperance,-33.87,121.9,281.15,93,0,4.6,AU,1589057433
thinadhoo,0.53,72.93,302.67,77,99,6.01,MV,1589057726
valparaiso,-33.04,-71.63,291.15,55,3,2.1,CL,1589057468
yambio,4.57,28.4,293.97,97,100,0.64,SS,1589057727
maykor,59.01,55.88,286.49,60,12,2.09,RU,1589057727
ciudad bolivar,8.12,-63.55,309.76,29,24,6.97,VE,1589057727
skibbereen,51.55,-9.27,288.15,72,20,1.5,IE,1589057728
saint anthony,45.02,-93.22,288.71,28,75,5.1,US,1589057459
dzaoudzi,-12.79,45.27,299.15,94,77,1.5,YT,1589057729
bagotville,-28.98,153.42,289.26,93,1,1.0,AU,1589057729
acarau,-2.89,-40.12,299.47,83,19,2.8,BR,1589057729
carutapera,-1.2,-46.02,298.99,88,81,2.33,BR,1589057585
namie,37.48,141.0,288.71,98,52,2.9,JP,1589057731
queanbeyan,-35.35,149.23,278.15,82,0,5.1,AU,1589057436
nishihara,26.18,127.76,297.15,94,75,3.6,JP,1589057731
rio grande,-32.03,-52.1,294.15,56,6,4.1,BR,1589057495
ginir,7.13,40.7,288.3,91,100,1.62,ET,1589057732
makurdi,7.74,8.51,298.98,82,100,3.48,NG,1589057733
garowe,8.41,48.48,300.62,65,4,4.59,SO,1589057733
mataura,-46.19,168.86,281.79,80,63,1.71,NZ,1589057734
albany,42.6,-73.97,279.82,36,79,2.68,US,1589057734
seymchan,62.88,152.43,273.74,92,100,6.05,RU,1589057734
souillac,-20.52,57.52,296.15,83,40,4.1,MU,1589057735
codrington,-38.27,141.97,280.98,78,82,3.57,AU,1589057450
mokhsogollokh,61.47,128.92,269.74,92,0,2.01,RU,1589057736
bluff,-46.6,168.33,284.44,77,75,4.05,NZ,1589057736
sitka,57.05,-135.33,292.15,29,75,5.1,US,1589057737
busselton,-33.65,115.33,277.04,73,0,1.72,AU,1589057737
issa,53.87,44.86,282.39,93,100,6.2,RU,1589057738
stromness,58.97,-3.3,278.15,80,95,10.8,GB,1589057738
osa,57.28,55.46,289.36,62,56,3.67,RU,1589057739
richards bay,-28.78,32.04,291.94,91,0,1.78,ZA,1589057739
pevek,69.7,170.31,276.57,74,100,4.46,RU,1589057739
ambatondrazaka,-17.83,48.42,289.59,89,44,1.76,MG,1589057740
marsh harbour,26.54,-77.06,298.57,72,50,3.66,BS,1589057740
carnarvon,-24.87,113.63,297.07,42,100,6.02,AU,1589057741
sao felix do xingu,-6.64,-51.99,299.05,86,69,1.21,BR,1589057741
geraldton,-28.77,114.6,289.15,44,70,3.6,AU,1589057741
coahuayana,18.73,-103.68,306.15,41,40,5.1,MX,1589057742
goma,-1.68,29.22,291.33,82,100,1.17,CD,1589057743
cherskiy,68.75,161.3,277.0,75,100,3.63,RU,1589057743
atuona,-9.8,-139.03,300.32,78,48,7.61,PF,1589057743
astoria,46.19,-123.83,295.15,49,1,6.2,US,1589057744
bonavista,48.65,-53.11,277.25,75,100,10.7,CA,1589057744
norman wells,65.28,-126.83,281.15,49,5,7.7,CA,1589057745
auki,-8.77,160.7,300.85,79,67,2.4,SB,1589057745
nabire,-3.37,135.48,298.61,88,12,1.31,ID,1589057706
lafiagi,8.87,5.42,300.7,78,90,3.06,NG,1589057746
kutum,14.2,24.67,295.36,16,0,3.87,SD,1589057746
high rock,26.62,-78.28,300.15,65,40,4.1,BS,1589057747
kodiak,57.79,-152.41,280.15,87,90,5.1,US,1589057522
namibe,-15.2,12.15,300.28,53,17,1.42,AO,1589057748
talnakh,69.49,88.4,272.15,86,75,9.0,RU,1589057748
bardiyah,31.76,25.09,290.35,74,0,4.25,LY,1589057749
santa isabel do rio negro,-0.41,-65.02,301.26,93,99,0.2,BR,1589057750
laguna,38.42,-121.42,305.37,27,1,3.6,US,1589057750
butaritari,3.07,172.79,301.49,81,0,5.19,KI,1589057751
tartagal,-22.52,-63.8,296.28,58,0,1.13,AR,1589057751
sayat,38.78,63.88,292.15,68,0,2.1,TM,1589057751
iskilip,40.74,34.47,279.81,81,34,2.39,TR,1589057752
hosanagara,13.92,75.07,296.34,94,78,1.51,IN,1589057752
hay river,60.82,-115.8,273.15,82,75,2.6,CA,1589057753
thompson,55.74,-97.86,275.15,43,75,8.2,CA,1589057753
ciudad del maiz,22.4,-99.6,300.93,41,78,5.81,MX,1589057753
hithadhoo,-0.6,73.08,302.41,78,94,5.66,MV,1589057754
cooma,-36.23,149.13,274.15,69,0,5.1,AU,1589057755
salvador,13.83,-88.92,305.15,66,20,4.1,SV,1589057564
tasiilaq,65.61,-37.64,273.15,88,100,5.7,GL,1589057755
tocopilla,-22.09,-70.2,294.27,52,53,3.01,CL,1589057756
cayenne,4.93,-52.33,299.15,94,57,2.1,GF,1589057756
holme,56.11,10.17,285.37,71,30,1.0,DK,1589057757
vaini,-21.2,-175.2,300.15,94,75,4.6,TO,1589057757
teguldet,57.31,88.17,286.17,81,89,2.21,RU,1589057757
hamilton,39.18,-84.53,286.48,32,1,6.2,US,1589057659
plainview,40.78,-73.47,282.04,28,90,5.1,US,1589057582
chuy,-33.7,-53.46,288.27,65,87,2.85,UY,1589057759
allapalli,19.42,80.07,303.11,38,0,1.69,IN,1589057759
safaga,26.73,33.94,298.15,41,0,2.1,EG,1589057482
mackenzie,55.3,-123.17,288.15,38,1,5.7,CA,1589057760
alibag,18.64,72.88,303.15,79,40,1.5,IN,1589057760
jumla,29.27,82.18,282.34,64,69,0.85,NP,1589057761
tomatlan,19.93,-105.25,308.43,31,0,4.63,MX,1589057761
nha trang,12.25,109.18,301.15,83,32,0.5,VN,1589057762
port augusta,-32.5,137.77,279.15,93,0,3.1,AU,1589057762
upernavik,72.79,-56.15,266.79,92,100,4.99,GL,1589057762
lubango,-14.92,13.49,289.28,51,60,0.79,AO,1589057645
coquimbo,-29.95,-71.34,287.15,82,75,3.1,CL,1589057763
abomsa,9.98,39.98,296.09,46,53,2.54,ET,1589057764
chiang klang,19.29,100.86,297.83,83,100,0.4,TH,1589057764
raudeberg,61.99,5.14,275.93,89,99,10.5,NO,1589057765
fort nelson,58.81,-122.7,285.15,30,40,4.6,CA,1589057765
caravelas,-17.71,-39.25,295.1,73,22,4.34,BR,1589057766
lagunas,-5.23,-75.68,301.6,57,26,1.04,PE,1589057766
namwala,-15.75,26.44,288.73,64,4,2.31,ZM,1589057766
jamestown,42.1,-79.24,275.93,69,90,8.7,US,1589057698
dijon,47.32,5.02,292.15,55,100,1.5,FR,1589057767
joutseno,61.12,28.51,279.15,56,27,3.6,FI,1589057768
walla walla,46.06,-118.34,297.04,43,1,3.6,US,1589057606
bisira,8.52,-81.71,292.12,100,100,0.96,PA,1589057769
atasu,48.68,71.64,287.11,78,95,2.28,KZ,1589057769
bandarbeyla,9.49,50.81,301.27,75,0,4.11,SO,1589057769
bengkulu,-3.8,102.27,297.7,92,100,2.38,ID,1589057770
victoria,22.29,114.16,300.93,86,78,2.24,HK,1589057769
mar del plata,-38.0,-57.56,292.04,68,0,8.2,AR,1589057771
polson,47.69,-114.16,289.82,45,3,3.58,US,1589057771
asau,46.43,26.4,283.15,82,66,1.19,RO,1589057772
adrar,20.5,-10.07,307.18,11,0,6.85,MR,1589057477
deputatskiy,69.3,139.9,270.81,99,99,1.84,RU,1589057773
port hardy,50.7,-127.42,291.15,52,75,2.1,CA,1589057507
nortelandia,-14.45,-56.8,298.97,74,100,1.42,BR,1589057774
westport,41.14,-73.36,282.15,24,75,11.8,US,1589057660
campbell river,50.02,-125.24,295.15,28,75,1.0,CA,1589057757
georgetown,5.41,100.34,300.15,100,20,1.5,MY,1589057775
yar-sale,66.83,70.83,273.92,92,93,3.08,RU,1589057775
ankazoabo,-22.28,44.52,291.42,73,0,2.02,MG,1589057776
doctor juan leon mallorquin,-25.4,-55.27,298.15,41,0,6.2,PY,1589057776
lebu,-37.62,-73.65,287.63,80,100,7.61,CL,1589057777
agua dulce,18.13,-94.13,302.15,70,75,12.9,MX,1589057777
guacimo,10.21,-83.68,302.15,51,75,1.5,CR,1589057778
clyde river,70.47,-68.59,263.15,85,75,6.2,CA,1589057778
diapaga,12.07,1.79,308.43,26,34,1.14,BF,1589057778
boddam,57.47,-1.78,280.15,87,90,5.7,GB,1589057779
ilulissat,69.22,-51.1,274.15,74,100,5.1,GL,1589057779
sanandaj,35.31,46.99,288.34,56,0,3.15,IR,1589057780
barrow,71.29,-156.79,271.15,86,1,3.6,US,1589057780
hede,33.77,120.25,287.26,82,57,0.99,CN,1589057780
kaitangata,-46.28,169.85,282.59,73,95,1.34,NZ,1589057781
barmer,25.75,71.38,300.31,66,0,5.43,IN,1589057781
saint-francois,46.42,3.91,292.15,48,39,3.6,FR,1589057782
ursulo galvan,22.73,-98.3,304.26,50,100,0.89,MX,1589057782
svetlogorsk,52.63,29.73,282.82,83,100,1.66,BY,1589057783
nanortalik,60.14,-45.24,279.32,62,62,7.05,GL,1589057783
atambua,-9.11,124.89,294.73,87,95,2.48,ID,1589057783
paita,-5.09,-81.11,297.42,70,16,7.18,PE,1589057784
chalmette,29.94,-89.96,292.15,48,75,3.6,US,1589057784
luderitz,-26.65,15.16,289.15,77,0,1.5,NA,1589057785
sao filipe,14.9,-24.5,296.91,74,95,4.43,CV,1589057785
kalemie,-5.95,29.19,296.03,79,6,2.77,CD,1589057786
kruisfontein,-34.0,24.73,288.12,80,0,1.77,ZA,1589057786
cockburn town,21.46,-71.14,300.57,82,30,6.28,TC,1589057768
shymkent,42.3,69.6,289.15,82,90,6.0,KZ,1589057578
margate,51.38,1.39,287.04,80,61,5.9,GB,1589057787
grand-santi,4.25,-54.38,298.68,95,98,1.65,GF,1589057788
gua musang,4.88,101.96,297.28,93,100,0.65,MY,1589057789
porto-vecchio,41.59,9.28,290.15,82,100,5.1,FR,1589057789
kathu,7.92,98.33,299.15,94,75,1.0,TH,1589057790
goure,13.98,10.27,308.15,15,82,0.89,NE,1589057790
faanui,-16.48,-151.75,300.76,80,23,8.0,PF,1589057790
dunedin,-45.87,170.5,283.15,96,83,1.34,NZ,1589057626
kondapalle,16.62,80.53,300.57,77,18,3.21,IN,1589057791
zhongshu,24.52,103.77,289.28,74,0,0.71,CN,1589057792
port-gentil,-0.72,8.78,300.15,94,40,3.6,GA,1589057792
vao,-22.67,167.48,295.55,73,30,6.05,NC,1589057792
alofi,-19.06,-169.92,301.15,83,44,4.1,NU,1589057793
bethel,41.37,-73.41,279.26,28,75,7.2,US,1589057706
komsomolskiy,40.43,71.72,291.15,68,39,3.1,UZ,1589057794
aswan,24.09,32.91,297.26,23,0,6.27,EG,1589057644
mulanje,-16.03,35.5,290.51,90,69,2.69,MW,1589057795
los llanos de aridane,28.66,-17.92,294.15,73,40,7.7,ES,1589057795
bonthe,7.53,-12.51,300.58,86,100,2.89,SL,1589057795
ambovombe,-25.17,46.08,293.43,78,0,6.27,MG,1589057796
itarema,-2.92,-39.92,299.07,85,8,2.97,BR,1589057796
havelock,34.88,-76.9,290.37,29,1,4.6,US,1589057797
sorong,-0.88,131.25,300.14,87,21,5.62,ID,1589057798
brigantine,39.41,-74.36,283.15,31,40,9.8,US,1589057798
khatanga,71.97,102.5,264.53,96,11,3.65,RU,1589057798
guerrero negro,27.98,-114.06,298.29,44,0,5.91,MX,1589057799
mandalgovi,45.76,106.27,273.81,81,0,5.61,MN,1589057799
muisne,0.6,-80.03,302.15,83,40,4.1,EC,1589057800
lazaro cardenas,17.96,-102.2,303.62,55,0,4.89,MX,1589057800
torbay,47.67,-52.73,280.37,85,90,11.3,CA,1589057801
kabalo,-6.05,26.92,294.98,92,2,1.7,CD,1589057801
cavalcante,-13.8,-47.46,292.39,86,96,2.85,BR,1589057801
cherdyn,60.4,56.48,285.17,66,0,1.94,RU,1589057802
honningsvag,70.98,25.97,274.97,79,95,5.09,NO,1589057802
tucumcari,35.17,-103.72,296.15,23,1,5.7,US,1589057803
ponta do sol,32.67,-17.1,293.15,68,40,2.1,PT,1589057803
tiksi,71.69,128.87,265.03,95,0,2.13,RU,1589057803
longyearbyen,78.22,15.64,265.15,61,20,7.2,SJ,1589057804
ligayan,4.65,119.47,302.47,74,78,3.09,PH,1589057804
tura,25.52,90.22,296.72,41,0,1.49,IN,1589057805
harper,4.38,-7.72,299.88,87,92,4.55,LR,1589057805
hidrolandia,-4.41,-40.44,297.71,79,23,1.83,BR,1589057788
tateyama,34.98,139.87,292.59,100,87,3.13,JP,1589057806
saint-philippe,-21.36,55.77,294.15,77,20,3.6,RE,1589057807
quelimane,-17.88,36.89,296.15,83,40,2.6,MZ,1589057807
korla,41.76,86.15,291.93,25,25,3.09,CN,1589057808
teya,60.38,92.63,285.31,74,100,2.54,RU,1589057808
tuktoyaktuk,69.45,-133.04,274.15,74,40,9.8,CA,1589057808
constitucion,-35.33,-72.42,288.5,84,22,1.85,CL,1589057809
mae sot,16.72,98.57,298.05,85,100,0.61,TH,1589057809
port blair,11.67,92.75,301.25,79,95,1.19,IN,1589057810
khudumelapye,-23.88,24.75,289.71,51,0,3.32,BW,1589057810
klaksvik,62.23,-6.59,273.15,84,39,8.2,FO,1589057811
bambous virieux,-20.34,57.76,296.15,83,40,4.1,MU,1589057811
mabaruma,8.2,-59.78,301.23,65,37,3.36,GY,1589057812
nome,64.5,-165.41,281.15,61,1,7.7,US,1589057812
tamandare,-8.76,-35.1,298.9,78,27,3.26,BR,1589057813
sembakung,3.82,117.25,296.68,97,94,0.81,ID,1589057813
bambanglipuro,-7.95,110.28,298.39,85,99,1.89,ID,1589057813
san ramon,37.78,-121.98,303.15,32,1,3.1,US,1589057814
vardo,70.37,31.11,274.62,83,75,1.16,NO,1589057814
conde,-7.26,-34.91,300.15,74,20,7.7,BR,1589057815
kilindoni,-7.91,39.67,299.81,80,91,7.29,TZ,1589057815
ostrovnoy,68.05,39.51,274.42,88,100,1.38,RU,1589057815
hervey bay,-25.3,152.85,289.26,89,100,1.34,AU,1589057816
natal,-5.79,-35.21,300.15,78,40,4.6,BR,1589057816
romans-sur-isere,45.05,5.06,288.15,71,100,0.45,FR,1589057817
sayyan,15.17,44.32,289.68,41,2,1.4,YE,1589057818
yarmouth,41.71,-70.23,281.15,26,75,10.8,US,1589057818
cairns,-16.92,145.77,293.15,88,37,5.1,AU,1589057819
east london,-33.02,27.91,291.98,82,17,3.34,ZA,1589057819
goderich,43.75,-81.72,278.71,67,46,3.63,CA,1589057808
naze,28.37,129.48,295.15,94,66,2.6,JP,1589057820
xiongyue,40.18,122.12,285.51,86,84,3.45,CN,1589057820
ambon,-3.7,128.18,298.15,94,20,3.6,ID,1589057821
puerto el triunfo,13.28,-88.55,305.15,66,40,3.1,SV,1589057821
rota,36.62,-6.36,290.15,88,49,4.6,ES,1589057822
vila velha,-20.33,-40.29,296.15,60,12,2.1,BR,1589057823
kilcullen,53.13,-6.74,288.15,62,20,2.1,IE,1589057823
beringovskiy,63.05,179.32,273.72,95,100,16.37,RU,1589057824
iqaluit,63.75,-68.51,277.15,69,75,2.6,CA,1589057824
sola,-13.88,167.55,299.95,78,22,7.57,VU,1589057825
srivardhan,18.03,73.02,299.02,85,0,2.21,IN,1589057825
inirida,3.87,-67.92,302.98,66,68,1.15,CO,1589057825
tessalit,20.2,1.01,302.62,13,4,1.15,ML,1589057826
baruun-urt,46.68,113.28,277.9,66,100,9.27,MN,1589057826
hami,42.8,93.45,286.44,34,0,2.73,CN,1589057827
pangoa,-12.12,-73.0,299.69,57,19,1.48,PE,1589057827
faya,18.39,42.45,294.15,82,0,0.45,SA,1589057827
arteaga,18.47,-102.42,302.88,36,61,3.75,MX,1589057828
bonfim,3.08,-59.95,304.65,54,75,3.1,BR,1589057829
kapustin yar,48.58,45.74,283.61,76,0,6.16,RU,1589057829
shingu,33.73,135.98,291.38,97,100,2.93,JP,1589057830
viedma,-40.81,-63.0,291.69,33,9,5.61,AR,1589057830
bibiani,6.46,-2.32,297.75,98,55,1.25,GH,1589057831
namatanai,-3.67,152.43,300.83,78,1,2.3,PG,1589057831
necochea,-38.55,-58.74,290.93,58,0,0.89,AR,1589057832
mnogovershinnyy,53.94,139.92,273.92,91,0,1.97,RU,1589057832
otta,61.77,9.54,274.27,83,76,1.73,NO,1589057832
haines junction,60.75,-137.51,291.26,37,48,0.89,CA,1589057833
marawi,8.0,124.29,299.26,83,98,2.24,PH,1589057833
cuilco,15.4,-91.97,299.06,63,99,0.81,GT,1589057834
oranjestad,12.52,-70.03,303.15,70,20,13.9,AW,1589057657
soto la marina,23.77,-98.22,301.48,63,94,5.81,MX,1589057835
taoudenni,22.68,-3.98,310.35,11,19,3.79,ML,1589057835
mahebourg,-20.41,57.7,296.15,83,40,4.1,MU,1589057704
andenes,69.31,16.12,273.15,79,100,8.2,NO,1589057836
portland,45.52,-122.68,303.15,23,75,10.3,US,1589057665
mogadishu,2.04,45.34,301.58,80,98,4.77,SO,1589057837
inhambane,-23.86,35.38,293.78,84,9,4.89,MZ,1589057837
ibra,22.69,58.53,301.21,27,0,2.04,OM,1589057838
kahului,20.89,-156.47,300.15,57,40,7.7,US,1589057838
makakilo city,21.35,-158.09,301.15,54,75,6.7,US,1589057839
sterling,39.01,-77.43,283.71,39,75,8.7,US,1589057839
jiaxing,30.75,120.75,292.04,99,96,1.49,CN,1589057840
kaeo,-35.1,173.78,288.71,3,98,0.89,NZ,1589057841
batabano,22.72,-82.29,298.15,78,75,4.6,CU,1589057841
pitimbu,-7.47,-34.81,300.15,74,20,7.7,BR,1589057842
kasongo-lunda,-6.47,16.82,296.53,78,100,0.31,CD,1589057842
along,28.17,94.77,290.62,77,5,0.84,IN,1589057843
kiama,-34.68,150.87,284.26,62,0,3.58,AU,1589057843
pangai,-19.8,-174.35,300.47,82,90,6.27,TO,1589057844
balingasay,16.36,119.86,302.22,73,74,3.52,PH,1589057844
te anau,-45.42,167.72,284.47,87,100,1.19,NZ,1589057845
hofn,64.25,-15.21,274.21,76,100,4.45,IS,1589057846
saint-pierre,-21.34,55.48,294.15,77,20,3.6,RE,1589057846
burgeo,47.62,-57.62,277.97,96,100,12.25,CA,1589057847
puri,19.8,85.85,301.15,94,40,3.1,IN,1589057847
dalbandin,28.89,64.41,301.4,14,55,2.87,PK,1589057847
erzin,36.96,36.2,292.59,84,10,1.6,TR,1589057848
boundiali,9.52,-6.49,301.89,58,1,1.76,CI,1589057848
suntar,62.14,117.63,273.49,86,11,2.65,RU,1589057849
atar,20.52,-13.05,305.07,12,16,4.85,MR,1589057849
esso,55.93,158.7,271.03,92,100,7.6,RU,1589057850
dudinka,69.41,86.18,272.15,86,75,9.0,RU,1589057850
cidreira,-30.18,-50.21,291.11,76,0,3.56,BR,1589057850
nikolskoye,59.7,30.79,279.15,56,0,2.0,RU,1589057851
lavrentiya,65.58,-171.0,275.0,92,100,4.59,RU,1589057851
walvis bay,-22.96,14.51,296.49,38,0,2.13,NA,1589057852
ishigaki,24.34,124.16,298.65,89,0,4.96,JP,1589057852
palmer,42.16,-72.33,279.82,35,75,16.5,US,1589057853
berlevag,70.86,29.09,272.91,90,97,2.51,NO,1589057853
leticia,-4.22,-69.94,300.15,83,75,2.1,CO,1589057853
bilibino,68.05,166.44,275.09,85,100,4.03,RU,1589057854
sarangani,5.4,125.46,302.32,73,100,1.98,PH,1589057854
impfondo,1.64,18.07,295.67,95,95,0.36,CG,1589057855
sarahan,31.52,77.8,283.33,48,16,3.2,IN,1589057855
severo-yeniseyskiy,60.37,93.04,283.45,82,100,3.18,RU,1589057856
bredasdorp,-34.53,20.04,289.15,93,0,2.1,ZA,1589057856
lorengau,-2.02,147.27,301.84,75,8,2.86,PG,1589057857
marzuq,14.4,46.47,298.97,27,32,2.51,YE,1589057857
alice springs,-23.7,133.88,281.15,65,60,2.6,AU,1589057857
gallup,35.53,-108.74,300.15,6,1,7.2,US,1589057858
morondava,-20.28,44.28,297.32,74,0,3.75,MG,1589057858
bezhetsk,57.79,36.7,280.47,76,42,1.42,RU,1589057859
igarka,67.47,86.58,271.63,97,90,4.08,RU,1589057860
arcachon,44.59,-1.05,292.15,82,100,5.1,FR,1589057860
acapulco,16.86,-99.89,304.15,62,5,3.6,MX,1589057761
tabory,58.52,64.55,288.65,52,8,1.93,RU,1589057861
mitchell,43.71,-98.03,283.15,57,90,9.8,US,1589057612
biak,-0.91,122.88,298.63,85,100,3.89,ID,1589057862
bull savanna,17.89,-77.59,301.45,69,100,8.04,JM,1589057862
oriximina,-1.77,-55.87,302.69,73,28,1.23,BR,1589057863
belaya gora,68.53,146.42,273.01,97,93,3.91,RU,1589057864
kerouane,9.27,-9.02,296.96,87,87,2.08,GN,1589057864
lucapa,-8.42,20.74,294.25,73,1,1.23,AO,1589057864
talagang,32.93,72.42,301.09,37,23,3.26,PK,1589057865
gorontalo,0.54,123.06,297.67,87,70,0.83,ID,1589057865
tra vinh,9.93,106.35,299.93,83,100,1.28,VN,1589057866
buraydah,26.33,43.98,301.15,69,75,6.7,SA,1589057866
broome,42.25,-75.83,275.93,85,40,7.2,US,1589057867
chifeng,42.27,118.96,284.37,39,0,2.76,CN,1589057867
aguimes,27.91,-15.45,294.15,64,40,8.2,ES,1589057867
casablanca,33.59,-7.62,293.71,77,13,3.6,MA,1589057397
oytal,42.91,73.27,287.73,76,100,1.12,KZ,1589057868
pisco,-13.7,-76.22,296.15,69,12,3.6,PE,1589057640
nogliki,51.83,143.17,274.83,87,2,2.64,RU,1589057869
varnavino,57.4,45.09,284.76,94,95,3.73,RU,1589057869
tuatapere,-46.13,167.68,285.16,82,86,2.99,NZ,1589057870
fairbanks,64.84,-147.72,292.59,35,1,1.5,US,1589057794
poum,-20.23,164.02,297.06,73,0,6.03,NC,1589057871
hovd,48.01,91.64,278.48,53,0,0.23,MN,1589057871
zhigalovo,54.81,105.16,276.59,81,76,2.17,RU,1589057872
tynda,55.17,124.72,272.32,90,50,1.63,RU,1589057872
saint george,37.1,-113.58,305.37,9,1,1.5,US,1589057669
nchelenge,-9.35,28.73,294.22,71,20,3.33,ZM,1589057873
beausejour,50.06,-96.52,279.26,41,74,9.39,CA,1589057874
beisfjord,68.38,17.6,274.15,64,67,3.6,NO,1589057874
lexington,37.99,-84.48,285.37,37,1,1.5,US,1589057717
egvekinot,66.32,-179.17,272.98,98,100,5.61,RU,1589057875
kharp,66.8,65.81,273.65,88,100,0.62,RU,1589057875
kushima,31.46,131.23,294.15,88,75,1.41,JP,1589057876
dauriya,49.93,116.87,279.38,61,85,7.24,RU,1589057876
nicoya,10.15,-85.45,305.15,62,75,3.1,CR,1589057876
yulara,-25.24,130.99,285.15,50,88,4.1,AU,1589057877
paramonga,-10.67,-77.83,294.59,75,71,4.44,PE,1589057877
san vicente,-26.62,-54.13,289.95,63,0,1.23,AR,1589057878
sosnovo,60.55,30.21,279.82,50,11,2.32,RU,1589057878
bulgan,48.81,103.53,274.34,82,59,1.63,MN,1589057879
oltu,40.55,42.0,278.96,82,100,0.49,TR,1589057879
langham,52.37,-106.97,277.59,56,90,3.6,CA,1589057879
punta alta,-38.88,-62.07,290.95,46,0,3.73,AR,1589057880
shimoda,34.67,138.95,290.15,93,75,1.5,JP,1589057881
kloulklubed,7.04,134.26,299.15,88,90,4.1,PW,1589057881
kovdor,67.57,30.48,271.38,98,78,1.78,RU,1589057882
fohnsdorf,47.22,14.68,286.15,87,94,2.1,AT,1589057882
blacksburg,37.23,-80.41,284.26,31,1,5.7,US,1589057739
yazd,31.9,54.37,296.15,17,20,2.1,IR,1589057883
kayakent,42.39,47.9,285.15,93,75,1.0,RU,1589057883
keetmanshoop,-26.58,18.13,296.15,22,0,3.6,NA,1589057884
mbocayaty,-25.7,-56.4,294.1,47,0,1.73,PY,1589057885
rocha,-34.48,-54.33,286.53,76,62,3.35,UY,1589057885
zabaykalsk,49.63,117.32,279.87,61,95,6.7,RU,1589057885
ahipara,-35.17,173.17,288.58,76,99,2.58,NZ,1589057886
leninskoye,47.94,132.62,283.99,84,100,3.91,RU,1589057886
boa vista,2.82,-60.67,305.15,52,40,4.6,BR,1589057887
contamana,-7.33,-75.02,304.15,47,42,0.82,PE,1589057887
la ronge,55.1,-105.28,280.15,28,20,4.1,CA,1589057887
niksar,40.59,36.95,279.36,74,35,0.31,TR,1589057888
babu,24.42,111.52,297.81,90,100,1.63,CN,1589057888
sidi ali,36.1,0.42,289.68,90,37,4.82,DZ,1589057889
nova granada,-20.53,-49.31,300.15,28,20,1.5,BR,1589057889
popondetta,-8.75,148.25,297.42,86,85,1.02,PG,1589057889
aksu,41.12,80.26,293.07,35,100,1.51,CN,1589057890
wukari,7.85,9.78,299.88,80,100,3.39,NG,1589057891
kem,64.96,34.58,276.76,93,96,5.19,RU,1589057891
karabulak,43.3,44.9,283.15,93,100,4.0,RU,1589057892
ayacucho,-13.16,-74.22,292.62,48,98,2.42,PE,1589057892
duekoue,6.75,-7.35,297.49,92,66,1.8,CI,1589057893
san rafael,-34.62,-68.33,296.56,25,0,5.14,AR,1589057893
darhan,49.49,105.92,277.14,70,54,1.68,MN,1589057894
peace river,56.25,-117.29,281.15,39,75,5.7,CA,1589057656
zamania,25.43,83.57,302.94,24,0,3.16,IN,1589057895
san jeronimo,-11.95,-75.28,290.1,50,48,2.13,PE,1589057895
waddan,29.16,16.14,298.67,17,71,6.04,LY,1589057895
zhezkazgan,47.8,67.71,287.52,82,7,2.9,KZ,1589057896
roald,62.58,6.13,277.04,87,98,7.2,NO,1589057896
rio brilhante,-21.8,-54.55,293.79,48,0,1.28,BR,1589057897
manta,-0.95,-80.73,303.15,58,40,7.2,EC,1589057897
doha,25.29,51.53,304.82,35,100,0.5,QA,1589057774
jalu,29.03,21.55,294.22,22,1,2.99,LY,1589057898
isangel,-19.55,169.27,293.15,88,6,1.5,VU,1589057898
vathi,38.4,23.6,290.93,71,40,1.65,GR,1589057899
aktas,49.78,72.96,281.15,65,88,5.0,KZ,1589057900
mitu,1.2,-70.17,299.84,92,97,0.66,CO,1589057900
buala,-8.14,159.59,301.49,79,21,2.39,SB,1589057900
verkhniy lomov,53.47,43.55,281.57,90,100,7.08,RU,1589057901
hasaki,35.73,140.83,292.04,88,75,3.1,JP,1589057902
yarada,17.65,83.27,298.15,88,90,5.1,IN,1589057902
bien hoa,10.95,106.82,302.15,83,40,2.1,VN,1589057902
ust-omchug,61.15,149.63,268.91,95,88,3.22,RU,1589057903
manzhouli,49.6,117.43,280.06,61,86,6.47,CN,1589057903
kadoma,34.73,135.58,291.15,77,75,2.1,JP,1589057904
panzhihua,26.59,101.71,293.31,43,0,0.74,CN,1589057904
maniitsoq,65.42,-52.9,278.27,69,90,7.2,GL,1589057905
ndele,8.41,20.65,298.93,61,81,2.27,CF,1589057905
shelburne,44.08,-80.2,277.59,51,90,7.7,CA,1589057905
laela,-8.57,32.05,288.03,93,17,2.17,TZ,1589057906
kuusamo,65.97,29.18,272.15,92,0,1.0,FI,1589057736
mareeba,-17.0,145.43,293.15,88,46,5.1,AU,1589057907
verkhoyansk,67.54,133.38,271.25,96,100,1.29,RU,1589057907
oranjemund,-28.55,16.43,293.29,44,0,2.59,NA,1589057907
narkevychi,49.52,26.64,282.82,85,17,1.81,UA,1589057908
vila franca do campo,37.72,-25.43,290.15,88,75,10.8,PT,1589057908
jinchang,38.5,102.17,285.01,28,62,2.14,CN,1589057909
novyy urengoy,66.08,76.63,273.2,95,68,1.6,RU,1589057909
adre,13.47,22.2,300.02,13,0,5.23,TD,1589057910
camacha,33.08,-16.33,292.15,77,75,6.2,PT,1589057910
denpasar,-8.65,115.22,299.15,100,20,3.1,ID,1589057910
urambo,-5.07,32.05,291.78,81,0,1.86,TZ,1589057911
zyryanka,65.75,150.85,272.22,98,100,8.0,RU,1589057911
san cristobal,7.77,-72.22,303.15,48,75,11.3,VE,1589057912
tezu,27.92,96.17,295.31,51,0,1.8,IN,1589057912
chiang khong,20.26,100.4,298.15,73,46,0.77,TH,1589057912
nouakchott,18.09,-15.98,297.15,60,47,8.7,MR,1589057829
lipin bor,60.26,37.98,279.24,81,25,2.58,RU,1589057913
kokopo,-4.35,152.26,299.49,81,0,2.74,PG,1589057914
yeppoon,-23.13,150.73,288.15,93,75,2.33,AU,1589057914
emerald,-23.53,148.17,288.15,87,90,2.1,AU,1589057914
tres arroyos,-38.37,-60.28,289.15,50,0,2.51,AR,1589057915
toamasina,-18.17,49.38,295.15,94,40,1.0,MG,1589057916
kampot,10.62,104.18,303.15,79,20,2.1,KH,1589057916
lagoa,39.05,-27.98,290.74,88,100,11.21,PT,1589057917
wanning,18.8,110.4,299.69,92,23,4.35,CN,1589057917
sistranda,63.73,8.83,275.15,93,75,4.1,NO,1589057918
soyo,-6.13,12.37,299.71,90,29,1.52,AO,1589057918
nemuro,43.32,145.57,281.23,74,100,4.88,JP,1589057919
vieques,18.43,-65.83,305.15,55,40,8.7,PR,1589057919
arica,-18.48,-70.3,293.15,72,17,4.6,CL,1589057743
batagay-alyta,67.8,130.41,266.11,96,92,0.7,RU,1589057920
lixourion,38.2,20.43,288.74,75,0,0.62,GR,1589057920
mayor pablo lagerenza,-19.93,-60.77,300.44,44,0,3.31,PY,1589057921
aba,5.11,7.37,299.26,87,86,1.67,NG,1589057921
benghazi,32.12,20.07,292.89,50,4,5.4,LY,1589057922
yinchuan,38.47,106.27,286.97,35,98,6.46,CN,1589057922
narsaq,60.92,-46.05,284.15,21,59,9.8,GL,1589057922
yarensk,62.17,49.09,279.82,97,100,1.35,RU,1589057923
barberton,-25.79,31.05,289.15,100,0,0.5,ZA,1589057912
xuanhua,40.61,115.04,285.87,35,2,5.92,CN,1589057924
zhigansk,66.77,123.37,263.48,96,22,3.96,RU,1589057925
schieder-schwalenberg,51.88,9.2,287.59,54,0,1.45,DE,1589057925
sopelana,43.38,-2.98,290.93,93,75,1.0,ES,1589057925
santa cruz del sur,20.71,-78.0,303.17,64,99,4.16,CU,1589057926
umm kaddadah,13.6,26.69,302.17,11,71,6.9,SD,1589057926
aksay,47.26,39.87,283.71,87,40,4.0,RU,1589057927
ongandjera,-17.88,15.07,295.36,35,26,3.23,NA,1589057927
kysyl-syr,63.9,122.76,266.92,95,5,2.41,RU,1589057928
antalaha,-14.9,50.28,296.54,83,99,3.68,MG,1589057928
la sarre,48.8,-79.2,274.96,80,100,5.78,CA,1589057821
sovetskiy,61.36,63.58,288.63,55,0,2.62,RU,1589057929
dong hoi,17.48,106.6,301.3,74,0,1.52,VN,1589057930
ajdabiya,30.76,20.23,293.11,40,0,3.4,LY,1589057930
bubaque,11.28,-15.83,298.39,80,1,7.0,GW,1589057930
russell,32.35,-85.2,294.15,30,1,1.5,US,1589057931
gornyy,55.12,83.91,285.98,66,1,0.88,RU,1589057931
talaya,61.38,152.75,271.39,95,100,5.42,RU,1589057932
areka,7.07,37.7,290.18,83,99,0.69,ET,1589057932
alta floresta,-9.88,-56.09,305.15,55,40,2.6,BR,1589057932
manono,-7.3,27.42,294.35,74,19,1.8,CD,1589057933
san patricio,19.22,-104.7,303.15,79,20,5.1,MX,1589057933
krasnoselkup,65.7,82.47,272.29,97,0,2.25,RU,1589057934
monrovia,6.3,-10.8,300.15,94,75,3.87,LR,1589057934
barra do garcas,-15.89,-52.26,303.15,51,20,2.6,BR,1589057935
yagodnoye,62.55,149.67,270.17,96,100,3.04,RU,1589057935
alghero,40.56,8.32,291.15,88,100,3.6,IT,1589057936
okato,-39.2,173.88,283.71,84,15,1.34,NZ,1589057936
almeria,37.17,-2.33,293.15,64,35,9.8,ES,1589057937
bondo,3.81,23.69,293.95,98,98,0.06,CD,1589057937
bosaso,11.28,49.18,303.56,60,6,0.8,SO,1589057938
takestan,36.07,49.7,289.15,59,90,2.1,IR,1589057938
isabela,6.71,121.97,300.47,81,95,0.84,PH,1589057938
lompoc,34.64,-120.46,295.37,82,75,4.6,US,1589057725
nueva guinea,11.69,-84.46,301.9,70,100,5.46,NI,1589057939
noumea,-22.28,166.46,294.82,93,90,2.97,NC,1589057935
touros,-5.2,-35.46,300.15,78,40,4.6,BR,1589057940
pacific grove,36.62,-121.92,293.71,59,1,3.1,US,1589057941
nagato,34.38,131.2,292.15,100,75,3.1,JP,1589057941
doka,13.52,35.77,300.03,32,55,1.56,SD,1589057941
mesyagutovo,55.53,58.25,287.74,59,61,1.42,RU,1589057942
half moon bay,37.46,-122.43,295.37,87,20,4.1,US,1589057942
antofagasta,-23.65,-70.4,290.15,72,40,5.7,CL,1589057914
brae,60.4,-1.35,277.15,64,86,10.3,GB,1589057943
cabo san lucas,22.89,-109.91,303.15,23,5,4.1,MX,1589057943
ust-nera,64.57,143.2,271.38,92,71,2.7,RU,1589057944
aktash,50.3,87.73,274.57,74,0,1.14,RU,1589057944
beyneu,45.32,55.2,292.65,56,38,6.37,KZ,1589057945
zhangjiakou,40.81,114.88,284.38,38,0,4.73,CN,1589057945
panjab,34.39,67.02,282.34,52,0,1.8,AF,1589057946
coromandel,-18.47,-47.2,290.23,88,8,2.15,BR,1589057946
rosarito,32.33,-117.03,296.15,64,40,5.7,MX,1589057946
anadyr,64.75,177.48,274.15,100,90,28.0,RU,1589057947
qaqortoq,60.72,-46.03,284.15,21,92,9.8,GL,1589057947
venezuela,8.0,-66.0,309.66,27,100,5.34,VE,1589057948
salekhard,66.53,66.6,274.87,86,100,0.82,RU,1589057948
kilis,36.72,37.12,287.15,71,0,4.6,TR,1589057948
mubi,10.27,13.26,305.36,29,98,0.83,NG,1589057949
naliya,23.27,68.83,299.54,89,0,4.26,IN,1589057949
muros,42.78,-9.06,287.59,88,51,2.68,ES,1589057950
krasnozerskoye,53.98,79.24,286.32,71,0,3.7,RU,1589057950
jardim,-21.48,-56.14,294.8,52,0,1.54,BR,1589057950
narrabri,-30.32,149.78,282.59,81,0,3.1,AU,1589057951
